[
  {
    "id": "barcelona",
    "filename": "barcelona.jpeg",
    "lat": 41.385,
    "lon": 2.1733333333333333,
    "date": "2025-05-15",
    "year": 2025,
    "month": 5,
    "thumbnail": "/images/thumbnails/barcelona.jpeg",
    "display": "/images/display/barcelona.jpeg"
  },
  {
    "id": "newyork",
    "filename": "newyork.jpeg",
    "lat": 40.71277777777778,
    "lon": 74.00583333333333,
    "date": "2025-08-05",
    "year": 2025,
    "month": 8,
    "thumbnail": "/images/thumbnails/newyork.jpeg",
    "display": "/images/display/newyork.jpeg"
  },
  {
    "id": "paris",
    "filename": "paris.jpeg",
    "lat": 48.85638888888889,
    "lon": 2.3519444444444444,
    "date": "2025-07-10",
    "year": 2025,
    "month": 7,
    "thumbnail": "/images/thumbnails/paris.jpeg",
    "display": "/images/display/paris.jpeg"
  },
  {
    "id": "sydney",
    "filename": "sydney.jpeg",
    "lat": 33.868611111111115,
    "lon": 151.20916666666665,
    "date": "2025-09-25",
    "year": 2025,
    "month": 9,
    "thumbnail": "/images/thumbnails/sydney.jpeg",
    "display": "/images/display/sydney.jpeg"
  },
  {
    "id": "tokyo",
    "filename": "tokyo.jpeg",
    "lat": 35.67611111111111,
    "lon": 139.65027777777777,
    "date": "2025-06-20",
    "year": 2025,
    "month": 6,
    "thumbnail": "/images/thumbnails/tokyo.jpeg",
    "display": "/images/display/tokyo.jpeg"
  }
]